site_name,site_id,cammlr_region,longitude_epsg_4326,latitude_epsg_4326,common_name,day,month,year,season_starting,penguin_count,accuracy,count_type,vantage,reference
Barrientos Island (Aitcho Islands),AITC,48.1,-59.751699999999985,-62.4070999999993,gentoo penguin,31,12,2017,2017,1704,1,nests,ground,<strong>Lynch  H. J.  </strong><i> ????a</i>. Antarctic Site Inventory. dataset.
Brown Station,ALMI,48.1,-62.86669999999999,-64.88329999999966,gentoo penguin,16,2,2018,2017,209,1,chicks,ground,<strong>Lynch  H. J.  </strong><i> ????a</i>. Antarctic Site Inventory. dataset.
Ardley Island,ARDL,48.1,-58.932999999999986,-62.21299999999926,gentoo penguin,,,2005,2005,4635,1,nests,ground,<strong>(ATCM) ANTARCTIC TREATY CONSULTATIVE MEETING  </strong><i> 2009c</i>.  Management plan for Antarctic Specially Protected Area No. 150: Ardley Island  Maxwell Bay  King George Island (25 De Mayo). Measure 9  Final Report of the Thirty-second Antarctic Treaty Consultative Meeting  Baltimore  United States.
Barnard Point (Livingston Island),BARN,48.1,-60.33799999999999,-62.75799999999937,gentoo penguin,,,1987,1987,600,1,nests,ground,<strong>Woehler  E. J.  </strong><i> 1993</i>. The distribution and abundance of Antarctic and Subantarctic penguins. Scientific Committee on Antarctic Research (SCAR)  Cambridge  United Kingdom.
Barton Peninsula,BART,48.1,-58.790999999999976,-62.22399999999926,gentoo penguin,,,2013,2013,2378,2,nests,,<strong>(ATCM) ANTARCTIC TREATY CONSULTATIVE MEETING  </strong><i> 2014b</i>. Management plan for Antarctic Specially Protected Area No. 171: 4 Nar&#281;bski Point  Barton Peninsula  King George Island. Measure 11  Final Report of the Thirty-second Antarctic Treaty Consultative Meeting  Brasilia  Brasil.
Beneden Head,BENE,48.1,-62.700999999999986,-64.76709999999966,gentoo penguin,30,12,2015,2015,1311,1,nests,ground,<strong>Lynch  H. J.  </strong><i> ????a</i>. Antarctic Site Inventory. dataset.
Bernardo O'Higgins Station,BERN,48.1,-57.899999999999984,-63.32089999999946,gentoo penguin,2,12,1996,1996,,,nests,ground,<strong>Lynch  H. J.  </strong><i> ????a</i>. Antarctic Site Inventory. dataset.
Biscoe Point,BISC,48.1,-63.77749999999999,-64.81139999999965,gentoo penguin,,,2012,2012,3197,1,nests,ground,<strong>(ATCM) ANTARCTIC TREATY CONSULTATIVE MEETING  </strong><i> 2014a</i>. Management plan for Antarctic Specially Protected Area No. 139: Biscoe Point  Anvers Island  Palmer Archipelago. Measure 6  Final Report of the Thirty-seventh Antarctic Treaty Consultative Meeting  Brasilia  Brasil.
Brash Island,BRAS,48.1,-54.914166999999985,-63.386388999999475,gentoo penguin,17,12,2015,2015,2270,1,nests,ground,<strong>Borowicz  A.  P. McDowall  C. Youngflesh  T. Sayre-McCord  G. Clucas  R. Herman  S. Forrest  M. Rider  M. Schwaller  T. Hart  S. Jenouvrier  M. Polito  H. Singh  and H. J. Lynch  </strong><i>2018</i>. Multi-modal survey of Ad&#233;lie penguin mega-colonies reveals the Danger Islands as a seabird hotspot. Scientific Reports 8:3926.
Brittannia's Figleaf,BRIT,48.1,-55.21299999999999,-61.277999999999025,gentoo penguin,13,12,2016,2016,396,1,nests,ground,<strong>Lynch  H. J.  </strong><i> ????a</i>. Antarctic Site Inventory. dataset.
Brown Bluff,BROW,48.1,-56.904999999999994,-63.52219999999949,gentoo penguin,1,1,2018,2017,793,1,nests,ground,<strong>Lynch  H. J.  </strong><i> ????a</i>. Antarctic Site Inventory. dataset.
Bryde Island East,BRYE,48.1,-62.927221999999986,-64.88972199999967,gentoo penguin,7,1,2018,2017,520,1,nests,ground,<strong>Lynch  H. J.  </strong><i> ????a</i>. Antarctic Site Inventory. dataset.
Bryde Island South,BRYS,48.1,-62.94999999999999,-64.89999999999968,gentoo penguin,16,2,2018,2017,905,1,chicks,ground,<strong>Lynch  H. J.  </strong><i> ????a</i>. Antarctic Site Inventory. dataset.
Charles Point,CHPT,48.1,-60.99999999999998,-64.23599999999959,gentoo penguin,11,1,2011,2010,795,1,nests,ground,<strong>Gonz&#225;lez-Zevallos  D.  M. M. Santos  E. F. Rombol&#225;  M. A. Ju&#225;res  and N. R. Coria  </strong><i> 2013</i>. Abundance and breeding distribution of seabirds in the northern part of the Danco Coast  Antarctic Peninsula. Polar Research 32:1-7.
Christoffersen Island,CHRI,48.2,-45.03499999999999,-60.727999999998886,gentoo penguin,27,12,1983,1983,324,1,nests,ground,<strong>Poncet  S. and J. Poncet  </strong><i> 1985</i>. A survey of penguin breeding populations at the South Orkey Islands. British Antarctic Survey Bulletin 68:71-81.
Cierva Point,CIER,48.1,-60.95999999999999,-64.15699999999957,gentoo penguin,2,1,2015,2014,3303,1,nests,ground,<strong>Lynch  H. J.  </strong><i> ????a</i>. Antarctic Site Inventory. dataset.
Cape Conway,CONW,48.1,-61.42239999999999,-62.841499999999385,gentoo penguin,8,2,1987,1986,400,3,nests,ground,<strong>Shuford  W. D. and B. Spear  </strong><i> 1988</i>. Surveys of breeding Chinstrap penguins in the South Shetland Island  Antarctica. British Antarctic Survey Bulletin 81:19-30.
Cuverville Island,CUVE,48.1,-62.625999999999976,-64.68399999999964,gentoo penguin,7,1,2018,2017,6903,1,nests,ground,<strong>Lynch  H. J.  </strong><i> ????a</i>. Antarctic Site Inventory. dataset.
Dorian Bay/Damoy Point,DAMO,48.1,-63.496799999999986,-64.81489999999965,gentoo penguin,4,1,2018,2017,1989,1,nests,ground,<strong>Lynch  H. J.  </strong><i> ????a</i>. Antarctic Site Inventory. dataset.
Danco Island,DANC,48.1,-62.59379999999999,-64.73399999999965,gentoo penguin,3,1,2018,2017,2623,1,nests,ground,<strong>Lynch  H. J.  </strong><i> ????a</i>. Antarctic Site Inventory. dataset.
Dorian Beacon,DOBE,48.1,-63.496799999999986,-64.81489999999965,gentoo penguin,25,2,2018,2017,264,1,chicks,ground,<strong>Lynch  H. J.  </strong><i> ????a</i>. Antarctic Site Inventory. dataset.
Dundee Island,DUND,48.1,-55.96599999999999,-63.482999999999485,gentoo penguin,,,1895,1895,40,1,nests,ground,<strong>Croxall  J. P. and E. D. Kirkwood  </strong><i> 1979</i>. The distribution of penguins on the Antarctic Penninulsa and islands of the Scotia Sea. British Antarctic Survey  Cambridge  United Kingdom.
Duthiers Point,DUPT,48.1,-62.81789999999999,-64.80489999999965,gentoo penguin,23,12,2013,2013,291,1,nests,ground,<strong>Lynch  H. J.  </strong><i> ????a</i>. Antarctic Site Inventory. dataset.
Duroch Islands,DURO,48.1,-57.89029999999999,-63.30329999999945,gentoo penguin,,,1965,1965,,,nests,ground,<strong>Croxall  J. P. and E. D. Kirkwood  </strong><i> 1979</i>. The distribution of penguins on the Antarctic Penninulsa and islands of the Scotia Sea. British Antarctic Survey  Cambridge  United Kingdom.
d'Urville Monument,DURV,48.1,-56.294399999999996,-63.42669999999948,gentoo penguin,12,12,2016,2016,962,1,nests,ground,<strong>Lynch  H. J.  </strong><i> ????a</i>. Antarctic Site Inventory. dataset.
Earle Island,EARL,48.1,-54.78329999999999,-63.48329999999949,gentoo penguin,14,12,2015,2015,847,1,nests,ground,<strong>Borowicz  A.  P. McDowall  C. Youngflesh  T. Sayre-McCord  G. Clucas  R. Herman  S. Forrest  M. Rider  M. Schwaller  T. Hart  S. Jenouvrier  M. Polito  H. Singh  and H. J. Lynch  </strong><i>2018</i>. Multi-modal survey of Ad&#233;lie penguin mega-colonies reveals the Danger Islands as a seabird hotspot. Scientific Reports 8:3926.
Elephant Point,ELPT,48.1,-60.85729999999999,-62.69239999999937,gentoo penguin,4,1,1958,1957,400,4,nests,ground,<strong>Croxall  J. P. and E. D. Kirkwood  </strong><i> 1979</i>. The distribution of penguins on the Antarctic Penninulsa and islands of the Scotia Sea. British Antarctic Survey  Cambridge  United Kingdom.
Ferrier Peninsula,FERR,48.2,-44.42499999999998,-60.71499999999888,gentoo penguin,,,1947,1947,,,nests,ground,<strong>Poncet  S. and J. Poncet  </strong><i> 1985</i>. A survey of penguin breeding populations at the South Orkey Islands. British Antarctic Survey Bulletin 68:71-81.
Fort Point (Greenwich Island),FORT,48.1,-59.579999999999984,-62.54199999999932,gentoo penguin,8,1,2018,2017,837,1,nests,ground,<strong>Lynch  H. J.  </strong><i> ????a</i>. Antarctic Site Inventory. dataset.
Galindez Island East,GALE,48.1,-64.23989999999999,-65.24759999999971,gentoo penguin,13,1,2015,2014,391,1,nests,ground,<strong>Lynch  H. J.  </strong><i> ????a</i>. Antarctic Site Inventory. dataset.
Galindez Island South,GALS,48.1,-64.24599999999998,-65.2519999999997,gentoo penguin,6,1,2013,2012,49,1,nests,ground,<strong>Lynch  H. J.  R. Naveen  and P. Casanovas  </strong><i> 2013</i>. Antarctic Site Inventory breeding bird survey data  1994-2013: Ecological Archives E094-243. Ecology 94:2653-2653.
Georges Point (Ronge Island),GEOR,48.1,-62.66959999999999,-64.66939999999963,gentoo penguin,15,2,2018,2017,3472,1,chicks,ground,<strong>Lynch  H. J.  </strong><i> ????a</i>. Antarctic Site Inventory. dataset.
Gerlache Island,GERL,48.1,-64.21399999999998,-64.60099999999964,gentoo penguin,2,1,1985,1984,1023,1,nests,ground,<strong>Parmalee  D. F. and C. C. Rimmer  </strong><i> 1987</i>. Revised penguin numbers and distributions for Anvers Island  Antarctica. British Antarctic Survey Bulletin 76:65-73.
Glandaz Point,GLAN,48.1,-63.95909999999998,-65.09109999999967,gentoo penguin,4,1,2015,2014,199,3,nests,ground,<strong>Lynch  H. J.  </strong><i> ????a</i>. Antarctic Site Inventory. dataset.
Gosling Islands,GOSL,48.2,-45.941999999999986,-60.64199999999885,gentoo penguin,4,1,1984,1983,874,1,nests,ground,<strong>Poncet  S. and J. Poncet  </strong><i> 1985</i>. A survey of penguin breeding populations at the South Orkey Islands. British Antarctic Survey Bulletin 68:71-81.
Gourdin Island,GOUR,48.1,-57.30739999999998,-63.19689999999946,gentoo penguin,2,12,1997,1997,568,1,nests,ground,<strong>Lynch  H. J.  </strong><i> ????a</i>. Antarctic Site Inventory. dataset.
The Green Glen,GREE,48.1,-55.265999999999984,-61.270999999999034,gentoo penguin,19,12,1970,1970,60,3,nests,ground,<strong>Croxall  J. P. and E. D. Kirkwood  </strong><i> 1979</i>. The distribution of penguins on the Antarctic Penninulsa and islands of the Scotia Sea. British Antarctic Survey  Cambridge  United Kingdom.
Georges Rib,GRIB,48.1,-54.972999999999985,-61.156999999999,gentoo penguin,16,2,1971,1970,500,3,nests,ground,<strong>Croxall  J. P. and E. D. Kirkwood  </strong><i> 1979</i>. The distribution of penguins on the Antarctic Penninulsa and islands of the Scotia Sea. British Antarctic Survey  Cambridge  United Kingdom.
Hannah Point,HANN,48.1,-60.61339999999999,-62.65449999999935,gentoo penguin,28,1,2016,2015,2820,1,chicks,ground,<strong>Lynch  H. J.  </strong><i> ????a</i>. Antarctic Site Inventory. dataset.
Harmony Point,HARM,48.1,-59.24249999999999,-62.30639999999928,gentoo penguin,,,1995,1995,3347,1,nests,ground,<strong>Silva  M. P.  M. Favero  R. J. Casaux  and A. Baroni  </strong><i> 1998</i>. The status of breeding birds at Harmony Point  Nelson Island  Antarctica in summer 1995/96. Marine Ornithology 26:75-78.
Heroina Island,HERO,48.1,-54.608299999999986,-63.39439999999947,gentoo penguin,9,12,2015,2015,999,1,nests,ground,<strong>Borowicz  A.  P. McDowall  C. Youngflesh  T. Sayre-McCord  G. Clucas  R. Herman  S. Forrest  M. Rider  M. Schwaller  T. Hart  S. Jenouvrier  M. Polito  H. Singh  and H. J. Lynch  </strong><i>2018</i>. Multi-modal survey of Ad&#233;lie penguin mega-colonies reveals the Danger Islands as a seabird hotspot. Scientific Reports 8:3926.
Hope Bay,HOPE,48.1,-56.99779999999999,-63.39719999999947,gentoo penguin,23,12,2017,2017,467,1,nests,ground,<strong>Lynch  H. J.  </strong><i> ????a</i>. Antarctic Site Inventory. dataset.
Hovgaard Island,HOVG,48.1,-64.09389999999999,-65.1295999999997,gentoo penguin,17,2,2018,2017,2301,1,chicks,ground,<strong>Lynch  H. J.  </strong><i> ????a</i>. Antarctic Site Inventory. dataset.
Humphries Heights,HUMP,48.1,-63.86369999999998,-65.0556999999997,gentoo penguin,4,1,2015,2014,58,3,nests,ground,<strong>Lynch  H. J.  </strong><i> ????a</i>. Antarctic Site Inventory. dataset.
Hurd Peninsula (east),HURE,48.1,-60.37899999999997,-62.69499999999937,gentoo penguin,,,1987,1987,100,3,nests,ground,<strong>Woehler  E. J.  </strong><i> 1993</i>. The distribution and abundance of Antarctic and Subantarctic penguins. Scientific Committee on Antarctic Research (SCAR)  Cambridge  United Kingdom.
Hurd Peninsula (west),HURW,48.1,-60.40599999999999,-62.673999999999346,gentoo penguin,8,12,2010,2010,0,1,nests,ground,<strong>Lynch  H. J.  R. Naveen  and P. Casanovas  </strong><i> 2013</i>. Antarctic Site Inventory breeding bird survey data  1994-2013: Ecological Archives E094-243. Ecology 94:2653-2653.
Hut Bluff,HUTB,48.1,-55.13999999999998,-61.21899999999901,gentoo penguin,19,12,1970,1970,120,1,nests,ground,<strong>Croxall  J. P. and E. D. Kirkwood  </strong><i> 1979</i>. The distribution of penguins on the Antarctic Penninulsa and islands of the Scotia Sea. British Antarctic Survey  Cambridge  United Kingdom.
Jade Point,JADE,48.1,-57.59349999999999,-63.60279999999952,gentoo penguin,22,12,2001,2001,1,1,nests,ground,<strong>Lynch  H. J.  R. Naveen  and P. Casanovas  </strong><i> 2013</i>. Antarctic Site Inventory breeding bird survey data  1994-2013: Ecological Archives E094-243. Ecology 94:2653-2653.
Johnson's Dock,JOHN,48.1,-60.367499999999986,-62.66039999999935,gentoo penguin,,,1987,1987,66,1,nests,ground,<strong>Woehler  E. J.  </strong><i> 1993</i>. The distribution and abundance of Antarctic and Subantarctic penguins. Scientific Committee on Antarctic Research (SCAR)  Cambridge  United Kingdom.
Jonassen Island,JONA,48.1,-56.683399999999985,-63.54249999999951,gentoo penguin,11,12,2016,2016,45,1,nests,ground,<strong>Lynch  H. J.  </strong><i> ????a</i>. Antarctic Site Inventory. dataset.
Joubin Islands,JOUB,48.1,-64.39919999999998,-64.77439999999964,gentoo penguin,,,1990,1990,104,1,nests,ground,<strong>Woehler  E. J.  </strong><i> 1993</i>. The distribution and abundance of Antarctic and Subantarctic penguins. Scientific Committee on Antarctic Research (SCAR)  Cambridge  United Kingdom.
Jougla Point,JOUG,48.1,-63.49319999999999,-64.82699999999966,gentoo penguin,31,12,2017,2017,1089,1,nests,ground,<strong>Lynch  H. J.  </strong><i> ????a</i>. Antarctic Site Inventory. dataset.
Ketley Point,KETL,48.1,-62.763099999999994,-64.70659999999964,gentoo penguin,14,3,1986,1985,200,5,nests,ground,<strong>Poncet  S. and J. Poncet  </strong><i> 1987</i>. Censuses of penguin populations of the Antarctic Peninsula 1983-1987. British Antarctic Survey Bulletin 77:109- 129.
"Knobble Head, Bransfield Island",KNOB,48.1,-56.569399999999995,-63.16189999999945,gentoo penguin,,,1960,1960,800,4,nests,ground,<strong>Croxall  J. P. and E. D. Kirkwood  </strong><i> 1979</i>. The distribution of penguins on the Antarctic Penninulsa and islands of the Scotia Sea. British Antarctic Survey  Cambridge  United Kingdom.
Lautaro Neck,LAUT,48.1,-63.10269999999998,-64.82849999999966,gentoo penguin,13,12,2010,2010,206,1,nests,ground,<strong>Lynch  H. J.  R. Naveen  and P. Casanovas  </strong><i> 2013</i>. Antarctic Site Inventory breeding bird survey data  1994-2013: Ecological Archives E094-243. Ecology 94:2653-2653.
Cape Leguillou,LEGU,48.1,-59.842999999999996,-63.542699999999506,gentoo penguin,,,1990,1990,6,1,nests,ground,<strong>Woehler  E. J.  </strong><i> 1993</i>. The distribution and abundance of Antarctic and Subantarctic penguins. Scientific Committee on Antarctic Research (SCAR)  Cambridge  United Kingdom.
Lions Rump,LION,48.1,-58.12289999999999,-62.13309999999923,gentoo penguin,,,2010,2010,3004,1,nests,ground,<strong>Korczak-Abshire  M.  M. W&#281;grzyn  P. J. Angiel  and M. Lisowska  </strong><i> 2013</i>. Pygoscelid penguins breeding distribution and population trends at Lions Rump rookery  King George Island. Polish Polar Research 34:87-99.
Llano Point,LLAN,48.1,-58.445999999999984,-62.17599999999924,gentoo penguin,16,11,2013,2013,6123,1,nests,ground,<strong>Antarctic Ecosystem Research Group  </strong><i> 2013</i>. 25 November 2013 weekly field reports: Copacabana  King George Island. Technical Report 1  National Oceanic & Atmospheric Administration  La Jolla  United States. 
Port Lockroy,LOCK,48.1,-63.48399999999998,-64.82309999999966,gentoo penguin,6,1,2018,2017,610,1,chicks,ground,<strong>Lynch  H. J.  </strong><i> ????a</i>. Antarctic Site Inventory. dataset.
Cape Lookout,LOOK,48.1,-55.204999999999984,-61.277999999999025,gentoo penguin,22,12,2015,2015,209,1,nests,ground,<strong>Lynch  H. J.  </strong><i> ????a</i>. Antarctic Site Inventory. dataset.
Loubat Point,LOUB,48.1,-63.92649999999998,-65.07759999999968,gentoo penguin,19,1,2013,2012,569,1,nests,ground,<strong>Lynch  H. J.  R. Naveen  and P. Casanovas  </strong><i> 2013</i>. Antarctic Site Inventory breeding bird survey data  1994-2013: Ecological Archives E094-243. Ecology 94:2653-2653.
Madder Cliff (Joinville Island),MADD,48.1,-56.48309999999999,-63.298899999999456,gentoo penguin,1,1,2018,2017,550,1,nests,ground,<strong>Lynch  H. J.  </strong><i> ????a</i>. Antarctic Site Inventory. dataset.
Madder Cliff Island,MADI,48.1,-56.498999999999995,-63.305999999999464,gentoo penguin,1,1,2018,2017,220,4,nests,offshore vessel,<strong>Lynch  H. J.  </strong><i> ????a</i>. Antarctic Site Inventory. dataset.
Point Martin,MART,48.2,-44.718499999999985,-60.770899999998896,gentoo penguin,,,1903,1903,,,nests,ground,<strong>Croxall  J. P. and E. D. Kirkwood  </strong><i> 1979</i>. The distribution of penguins on the Antarctic Penninulsa and islands of the Scotia Sea. British Antarctic Survey  Cambridge  United Kingdom.
Mikkelsen Harbor (Trinity Island),MIKK,48.1,-60.776199999999996,-63.89639999999954,gentoo penguin,24,12,2017,2017,1153,1,nests,ground,<strong>Lynch  H. J.  </strong><i> ????a</i>. Antarctic Site Inventory. dataset.
Cape Monaco,MONA,48.1,-64.27816399999999,-64.71713799999964,gentoo penguin,5,2,1979,1978,950,1,chicks,ground,<strong>Parmalee  D. F. and C. C. Rimmer  </strong><i> 1987</i>. Revised penguin numbers and distributions for Anvers Island  Antarctica. British Antarctic Survey Bulletin 76:65-73.
Moot Point,MOOT,48.1,-64.07799999999999,-65.2061999999997,gentoo penguin,25,1,2018,2017,925,1,chicks,ground,<strong>Lynch  H. J.  </strong><i> ????a</i>. Antarctic Site Inventory. dataset.
Muckle Bluff,MUCK,48.1,-54.86,-61.156999999999,gentoo penguin,16,2,1971,1970,500,4,nests,ground,<strong>Croxall  J. P. and E. D. Kirkwood  </strong><i> 1979</i>. The distribution of penguins on the Antarctic Penninulsa and islands of the Scotia Sea. British Antarctic Survey  Cambridge  United Kingdom.
Neko Harbor (Andvord Bay),NEKO,48.1,-62.53269999999999,-64.83829999999966,gentoo penguin,26,1,2018,2017,973,1,nests,ground,<strong>Lynch  H. J.  </strong><i> ????a</i>. Antarctic Site Inventory. dataset.
Noble Rocks,NOBL,48.1,-63.433499999999995,-64.78489999999965,gentoo penguin,25,2,2018,2017,48,1,chicks,ground,<strong>Lynch  H. J.  </strong><i> ????a</i>. Antarctic Site Inventory. dataset.
North Point,NOPT,48.2,-45.62599999999998,-60.671999999998874,gentoo penguin,23,11,2015,2015,1315,1,nests,ground,<strong>Dunn  M.J.  Jackson  J.A.  Adlard  S.  Lynnes  A.S.  Briggs  D.R.  Fox  D.  C.M. Waluda. </strong><i> 2016</i>. Population size and decadal trends of three penguin species nesting at Signy island  South Orkney islands. PLoS ONE 11(10): e0164025.
O'Neill Point,ONEI,48.1,-63.090131999999976,-64.81621999999966,gentoo penguin,22,12,2013,2013,342,1,nests,ground,<strong>Lynch  H. J.  R. Naveen  and P. Casanovas  </strong><i> 2013</i>. Antarctic Site Inventory breeding bird survey data  1994-2013: Ecological Archives E094-243. Ecology 94:2653-2653.
Orne Islands,ORNE,48.1,-62.67299999999999,-64.66199999999965,gentoo penguin,24,1,2018,2017,412,3,chicks,ground,<strong>Lynch  H. J.  </strong><i> ????a</i>. Antarctic Site Inventory. dataset.
Paradise Harbor Beacon (Paradise Bay),PABE,48.1,-62.93109999999999,-64.91109999999968,gentoo penguin,24,12,2006,2006,3,1,nests,ground,<strong>Lynch  H. J.  R. Naveen  and P. Casanovas  </strong><i> 2013</i>. Antarctic Site Inventory breeding bird survey data  1994-2013: Ecological Archives E094-243. Ecology 94:2653-2653.
Patella Island,PATE,48.1,-55.52379999999999,-63.129399999999436,gentoo penguin,,,1960,1960,200,4,nests,ground,<strong>Croxall  J. P. and E. D. Kirkwood  </strong><i> 1979</i>. The distribution of penguins on the Antarctic Penninulsa and islands of the Scotia Sea. British Antarctic Survey  Cambridge  United Kingdom.
Port Charcot,PCHA,48.1,-64.02599999999998,-65.06699999999967,gentoo penguin,19,1,2018,2017,1484,1,nests,ground,<strong>Lynch  H. J.  </strong><i> ????a</i>. Antarctic Site Inventory. dataset.
Peine Island (Comb Island),PEIN,48.1,-54.716999999999985,-63.410999999999476,gentoo penguin,18,12,2015,2015,186,1,nests,ground,<strong>Borowicz  A.  P. McDowall  C. Youngflesh  T. Sayre-McCord  G. Clucas  R. Herman  S. Forrest  M. Rider  M. Schwaller  T. Hart  S. Jenouvrier  M. Polito  H. Singh  and H. J. Lynch  </strong><i>2018</i>. Multi-modal survey of Ad&#233;lie penguin mega-colonies reveals the Danger Islands as a seabird hotspot. Scientific Reports 8:3926.
Petermann Island,PETE,48.1,-64.13699999999999,-65.17599999999969,gentoo penguin,5,1,2018,2017,3516,1,nests,ground,<strong>Lynch  H. J.  </strong><i> ????a</i>. Antarctic Site Inventory. dataset.
Plato Island (Platter Island),PLAT,48.1,-54.67419999999998,-63.43299999999948,gentoo penguin,16,12,2015,2015,223,1,nests,ground,<strong>Borowicz  A.  P. McDowall  C. Youngflesh  T. Sayre-McCord  G. Clucas  R. Herman  S. Forrest  M. Rider  M. Schwaller  T. Hart  S. Jenouvrier  M. Polito  H. Singh  and H. J. Lynch  </strong><i>2018</i>. Multi-modal survey of Ad&#233;lie penguin mega-colonies reveals the Danger Islands as a seabird hotspot. Scientific Reports 8:3926.
Pleneau Island,PLEN,48.1,-64.05559999999998,-65.10399999999969,gentoo penguin,25,1,2018,2017,3931,1,chicks,ground,<strong>Lynch  H. J.  </strong><i> ????a</i>. Antarctic Site Inventory. dataset.
Powell Island,POWE,48.2,-45.028999999999996,-60.72499999999888,gentoo penguin,27,12,1983,1983,2599,1,nests,ground,<strong>Poncet  S. and J. Poncet  </strong><i> 1985</i>. A survey of penguin breeding populations at the South Orkey Islands. British Antarctic Survey Bulletin 68:71-81.
Prime Head,PRIM,48.1,-57.304999999999986,-63.21289999999945,gentoo penguin,30,12,2016,2016,565,1,nests,ground,<strong>Lynch  H. J.  </strong><i> ????a</i>. Antarctic Site Inventory. dataset.
Principal Point,PRIN,48.1,-63.43099999999998,-64.91209999999965,gentoo penguin,21,1,2013,2012,567,1,nests,ground,<strong>Lynch  H. J.  R. Naveen  and P. Casanovas  </strong><i> 2013</i>. Antarctic Site Inventory breeding bird survey data  1994-2013: Ecological Archives E094-243. Ecology 94:2653-2653.
Point Thomas,PTHO,48.1,-58.46149999999999,-62.163099999999254,gentoo penguin,,1,2003,2002,50,1,nests,ground,<strong>Barbosa  A.  and H. J. Lynch  </strong><i> ???? </i> Personal communication between Adres Barbosa and Heather Lynch. personal communication.
Point Wordie,PTWD,48.1,-55.32799999999999,-61.244999999999024,gentoo penguin,,,2013,2013,1242,1,nests,ground,<strong>Petry  M.V.  F.C.L. Valls  E.S. Petersen  J.V.G. Finger  and L. Kr&uuml;ger. </strong><i> 2018</i>. Population trends of seabirds at Stinker Point  Elephant Island  Maritime Antarctica. Antarctic Science doi: 10.1017/S0954102018000135.
Py Point,PYPT,48.1,-63.597399999999986,-64.87919999999967,gentoo penguin,27,1,2010,2009,2355,3,nests,ground,<strong>Lynch  H. J.  R. Naveen  and P. Casanovas  </strong><i> 2013</i>. Antarctic Site Inventory breeding bird survey data  1994-2013: Ecological Archives E094-243. Ecology 94:2653-2653.
Quinton Point (north),QPTN,48.1,-63.66699999999999,-64.3169999999996,gentoo penguin,27,12,1983,1983,42,1,nests,ground,<strong>Poncet  S. and J. Poncet  </strong><i> 1985</i>. A survey of penguin breeding populations at the South Orkey Islands. British Antarctic Survey Bulletin 68:71-81.
Rip Point,RIPP,48.1,-59.00099999999999,-62.23499999999925,gentoo penguin,21,1,1966,1965,10000,5,nests,ground,<strong>Croxall  J. P. and E. D. Kirkwood  </strong><i> 1979</i>. The distribution of penguins on the Antarctic Penninulsa and islands of the Scotia Sea. British Antarctic Survey  Cambridge  United Kingdom.
Robert Point (Robert Island),ROBE,48.1,-59.38299999999999,-62.44999999999932,gentoo penguin,15,12,2016,2016,917,1,nests,ground,<strong>Lynch  H. J.  </strong><i> ????a</i>. Antarctic Site Inventory. dataset.
Ronge Island East,RONE,48.1,-62.64359999999998,-64.68839999999966,gentoo penguin,24,1,2018,2017,431,1,chicks,ground,<strong>Lynch  H. J.  </strong><i> ????a</i>. Antarctic Site Inventory. dataset.
San Eliado Point,SANE,48.1,-63.11659999999998,-64.84399999999965,gentoo penguin,13,12,2010,2010,245,1,nests,ground,<strong>Lynch  H. J.  R. Naveen  and P. Casanovas  </strong><i> 2013</i>. Antarctic Site Inventory breeding bird survey data  1994-2013: Ecological Archives E094-243. Ecology 94:2653-2653.
Saxum Nunatak,SAXU,48.1,-56.053299999999986,-63.136699999999436,gentoo penguin,22,12,2005,2005,540,4,nests,ground,<strong>Lynch  H. J.  R. Naveen  and P. Casanovas  </strong><i> 2013</i>. Antarctic Site Inventory breeding bird survey data  1994-2013: Ecological Archives E094-243. Ecology 94:2653-2653.
Selvick Cove,SELV,48.1,-62.56909999999999,-64.64049999999965,gentoo penguin,1,1,2018,2017,618,1,nests,ground,<strong>Lynch  H. J.  </strong><i> ????a</i>. Antarctic Site Inventory. dataset.
Cape Shirreff,SHIR,48.1,-60.787399999999984,-62.45749999999932,gentoo penguin,18,11,2010,2010,834,1,nests,ground,<strong>Antarctic Ecosystem Research Group  </strong><i> 2014c</i>. AMLR 2010-2011 Field Season Report. Technical report  National Oceanic & Atmospheric Administration  La Jolla  United States. 
Skottsberg Point,SKOT,48.1,-60.80889999999998,-63.92049999999955,gentoo penguin,24,12,2017,2017,382,1,nests,ground,<strong>Lynch  H. J.  </strong><i> ????a</i>. Antarctic Site Inventory. dataset.
Spigot Peak Point,SPIP,48.1,-62.55799999999999,-64.62499999999964,gentoo penguin,21,12,2016,2016,1,1,nests,ground,<strong>Lynch  H. J.  </strong><i> ????a</i>. Antarctic Site Inventory. dataset.
Spigot Peak Tripod,SPTR,48.1,-62.56219999999998,-64.63579999999963,gentoo penguin,21,1,2018,2017,11,1,nests,ground,<strong>Lynch  H. J.  </strong><i> ????a</i>. Antarctic Site Inventory. dataset.
Stackpole Rocks,STAC,48.1,-60.957399999999986,-62.67799999999935,gentoo penguin,4,12,1965,1965,4,1,nests,ground,<strong>Croxall  J. P. and E. D. Kirkwood  </strong><i> 1979</i>. The distribution of penguins on the Antarctic Penninulsa and islands of the Scotia Sea. British Antarctic Survey  Cambridge  United Kingdom.
Sterneck Island,STER,48.1,-60.982599999999984,-64.2009999999996,gentoo penguin,23,1,2016,2015,3668,2,chicks,ground,<strong>Lynch  H. J.  </strong><i> ????a</i>. Antarctic Site Inventory. dataset.
Stranger Point,STRA,48.1,-58.6161,-62.259999999999266,gentoo penguin,,1,2007,2006,3294,1,chicks,ground,<strong>Carlini  A. R.  N. R. Coria  M. M. Santos  J. Negrete  M. A. Ju&#225;res  and G. A. Daneri </strong><i> 2009</i>. Responses of <i>Pygoscelis adeliae</i> and <i>P. papua</i> populations to environmental changes at Isla 25 de Mayo (King George Island). Polar Biology 32:1427-1433.
Triangle Point,TRIA,48.1,-59.83899999999998,-62.52199999999932,gentoo penguin,3,2,1966,1965,45,3,nests,ground,<strong>Croxall  J. P. and E. D. Kirkwood  </strong><i> 1979</i>. The distribution of penguins on the Antarctic Penninulsa and islands of the Scotia Sea. British Antarctic Survey  Cambridge  United Kingdom.
Truant Island,TRUA,48.1,-63.40699999999998,-64.92299999999966,gentoo penguin,21,1,2013,2012,921,1,nests,ground,<strong>Lynch  H. J.  R. Naveen  and P. Casanovas  </strong><i> 2013</i>. Antarctic Site Inventory breeding bird survey data  1994-2013: Ecological Archives E094-243. Ecology 94:2653-2653.
Cape Tuxen,TUXE,48.1,-64.11779999999999,-65.2666999999997,gentoo penguin,24,1,2016,2015,302,1,nests,ground,<strong>Lynch  H. J.  </strong><i> ????a</i>. Antarctic Site Inventory. dataset.
Tuxen Rocks,TXRX,48.1,-64.13339999999998,-65.25489999999971,gentoo penguin,24,1,2016,2015,39,1,chicks,ground,<strong>Lynch  H. J.  </strong><i> ????a</i>. Antarctic Site Inventory. dataset.
Useful Island,USEF,48.1,-62.86399999999998,-64.71699999999966,gentoo penguin,24,12,2015,2015,1810,2,nests,ground,<strong>Lynch  H. J.  </strong><i> ????a</i>. Antarctic Site Inventory. dataset.
Vernadsky Station,VERN,48.1,-64.25669999999998,-65.2452999999997,gentoo penguin,13,1,2015,2014,236,1,nests,ground,<strong>Lynch  H. J.  </strong><i> ????a</i>. Antarctic Site Inventory. dataset.
Waterboat Point,WATE,48.1,-62.858099999999986,-64.82359999999966,gentoo penguin,30,12,2016,2016,3180,1,nests,ground,<strong>Lynch  H. J.  </strong><i> ????a</i>. Antarctic Site Inventory. dataset.
Weddell Island,WEDD,48.2,-44.84789999999998,-60.635899999998855,gentoo penguin,20,12,1987,1987,376,1,nests,ground,<strong>Trathan  P. N.  F. H. J. Daunt  and E. J. Murphy  </strong> editors  <i> 1996</i>. South Georgia: An ecological atlas. British Antarctic Survey  Cambridge  United Kingdom.
Point Wild,WILD,48.1,-54.86099999999999,-61.09799999999899,gentoo penguin,6,3,1971,1970,20,5,nests,ground,<strong>Croxall  J. P. and E. D. Kirkwood  </strong><i> 1979</i>. The distribution of penguins on the Antarctic Penninulsa and islands of the Scotia Sea. British Antarctic Survey  Cambridge  United Kingdom.
Watson Peninsula (east coast),WPEC,48.2,-44.54359999999999,-60.67609999999887,gentoo penguin,,,1994,1994,10,1,nests,ground,<strong>Woehler  E. J. and J. P. Croxall  </strong><i> 1997</i>. The status and trends of Antarctic and sub-Antarctic seabirds. Marine Ornithology 25:43-66.
Yalour Islands,YALO,48.1,-64.15639999999999,-65.23889999999969,gentoo penguin,,,2013,2013,25,1,nests,ground,<strong>Lynch  H. J.  </strong><i> ????a</i>. Antarctic Site Inventory. dataset.
Yankee Harbor,YANK,48.1,-59.768699999999995,-62.52569999999932,gentoo penguin,28,12,2016,2016,5466,1,nests,ground,<strong>Lynch  H. J.  </strong><i> ????a</i>. Antarctic Site Inventory. dataset.
